{
    "last_updated": 1585688372,
    "ttl": 4,
    "data": {
        "stations": [
            {
                "station_id": 1,
                "name": "GRAN VIA CORTS CATALANES, 760",
                "physical_configuration": "ELECTRICBIKESTATION",
                "lat": 41.397952,
                "lon": 2.180042,
                "altitude": 21.0,
                "address": "GRAN VIA CORTS CATALANES, 760",
                "post_code": "08908",
                "capacity": 46,
                "nearby_distance": 1000.0
            },
            {
                "station_id": 2,
                "name": "C/ ROGER DE FLOR, 126",
                "physical_configuration": "ELECTRICBIKESTATION",
                "lat": 41.39553,
                "lon": 2.17706,
                "altitude": 21.0,
                "address": "C/ ROGER DE FLOR, 126",
                "post_code": "08908",
                "capacity": 27,
                "nearby_distance": 1000.0
            },
            {
                "station_id": 3,
                "name": "C/ N\u00c0POLS, 82",
                "physical_configuration": "ELECTRICBIKESTATION",
                "lat": 41.394055,
                "lon": 2.181299,
                "altitude": 22.0,
                "address": "C/ N\u00c0POLS, 82",
                "post_code": "08908",
                "capacity": 27,
                "nearby_distance": 1000.0
            },
            {
                "station_id": 4,
                "name": "C/ RIBES, 13",
                "physical_configuration": "ELECTRICBIKESTATION",
                "lat": 41.39348,
                "lon": 2.181555,
                "altitude": 21.0,
                "address": "C/ RIBES, 13",
                "post_code": "08908",
                "capacity": 21,
                "nearby_distance": 1000.0
            },
            {
                "station_id": 5,
                "name": "PG. LLUIS COMPANYS, 11 (ARC TRIOMF)",
                "physical_configuration": "ELECTRICBIKESTATION",
                "lat": 41.391075,
                "lon": 2.180223,
                "altitude": 16.0,
                "address": "PG. LLUIS COMPANYS, 11 (ARC TRIOMF)",
                "post_code": "08908",
                "capacity": 39,
                "nearby_distance": 1000.0
            },
            {
                "station_id": 6,
                "name": "PG. LLUIS COMPANYS, 18  (ARC TRIOMF)",
                "physical_configuration": "ELECTRICBIKESTATION",
                "lat": 41.391349,
                "lon": 2.18061,
                "altitude": 16.0,
                "address": "PG. LLUIS COMPANYS, 18  (ARC TRIOMF)",
                "post_code": "08908",
                "capacity": 39,
                "nearby_distance": 1000.0
            },
            {
                "station_id": 7,
                "name": "PG. PUJADES,  1 (JUTJATS)",
                "physical_configuration": "ELECTRICBIKESTATION",
                "lat": 41.388856,
                "lon": 2.183251,
                "altitude": 16.0,
                "address": "PG. PUJADES,  1 (JUTJATS)",
                "post_code": "08908",
                "capacity": 27,
                "nearby_distance": 1000.0
            },
            {
                "station_id": 8,
                "name": "PG. PUJADES, 2",
                "physical_configuration": "ELECTRICBIKESTATION",
                "lat": 41.389088,
                "lon": 2.183568,
                "altitude": 11.0,
                "address": "PG. PUJADES, 2",
                "post_code": "08908",
                "capacity": 27,
                "nearby_distance": 1000.0
            },
            {
                "station_id": 9,
                "name": "AV. MARQU\u00c9S DE L'ARGENTERA,13",
                "physical_configuration": "ELECTRICBIKESTATION",
                "lat": 41.384532,
                "lon": 2.184921,
                "altitude": 11.0,
                "address": "AV. MARQU\u00c9S DE L'ARGENTERA,13",
                "post_code": "08908",
                "capacity": 27,
                "nearby_distance": 1000.0
            },
            {
                "station_id": 11,
                "name": "PG. MARITIM, 11 (DAVANT PL. BRUGADA)",
                "physical_configuration": "ELECTRICBIKESTATION",
                "lat": 41.381689,
                "lon": 2.193914,
                "altitude": 1.0,
                "address": "PG. MARITIM, 11 (DAVANT PL. BRUGADA)",
                "post_code": "08908",
                "capacity": 21,
                "nearby_distance": 1000.0
            },
            {
                "station_id": 12,
                "name": "PG. MARITIM, 23 (HOSPITAL DEL MAR)",
                "physical_configuration": "ELECTRICBIKESTATION",
                "lat": 41.384538,
                "lon": 2.195679,
                "altitude": 0.1,
                "address": "PG. MARITIM, 23 (HOSPITAL DEL MAR)",
                "post_code": "08908",
                "capacity": 26,
                "nearby_distance": 1000.0
            },
            {
                "station_id": 13,
                "name": "CARRER DE LA MARINA, 25-33",
                "physical_configuration": "ELECTRICBIKESTATION",
                "lat": 41.387985,
                "lon": 2.19578,
                "altitude": 8.0,
                "address": "CARRER DE LA MARINA, 25-33",
                "post_code": "08908",
                "capacity": 54,
                "nearby_distance": 1000.0
            },
            {
                "station_id": 14,
                "name": "AV. MARQU\u00c9S DE  L'ARGENTERA, 15",
                "physical_configuration": "ELECTRICBIKESTATION",
                "lat": 41.384675,
                "lon": 2.185039,
                "altitude": 11.0,
                "address": "AV. MARQU\u00c9S DE  L'ARGENTERA, 15",
                "post_code": "08908",
                "capacity": 27,
                "nearby_distance": 1000.0
            },
            {
                "station_id": 15,
                "name": "C/ GIRONA, 68",
                "physical_configuration": "ELECTRICBIKESTATION",
                "lat": 41.394812,
                "lon": 2.171189,
                "altitude": 40.0,
                "address": "C/ GIRONA, 68",
                "post_code": "08908",
                "capacity": 21,
                "nearby_distance": 1000.0
            },
            {
                "station_id": 17,
                "name": "AV. MERIDIANA, 47 (ANNEXA A LA 16)",
                "physical_configuration": "ELECTRICBIKESTATION",
                "lat": 41.398237,
                "lon": 2.186711,
                "altitude": 18.0,
                "address": "AV. MERIDIANA, 47 (ANNEXA A LA 16)",
                "post_code": "08908",
                "capacity": 42,
                "nearby_distance": 1000.0
            },
            {
                "station_id": 18,
                "name": "C/ ROSSELL\u00d3, 453",
                "physical_configuration": "ELECTRICBIKESTATION",
                "lat": 41.406086,
                "lon": 2.174167,
                "altitude": 49.0,
                "address": "C/ ROSSELL\u00d3, 453",
                "post_code": "08908",
                "capacity": 27,
                "nearby_distance": 1000.0
            },
            {
                "station_id": 19,
                "name": "C/ ROSSELL\u00d3, 354",
                "physical_configuration": "ELECTRICBIKESTATION",
                "lat": 41.403282,
                "lon": 2.170726,
                "altitude": 49.0,
                "address": "C/ ROSSELL\u00d3, 354",
                "post_code": "08908",
                "capacity": 30,
                "nearby_distance": 1000.0
            },
            {
                "station_id": 20,
                "name": "C/ CARTAGENA, 308",
                "physical_configuration": "ELECTRICBIKESTATION",
                "lat": 41.410166,
                "lon": 2.175759,
                "altitude": 59.0,
                "address": "C/ CARTAGENA, 308",
                "post_code": "08908",
                "capacity": 18,
                "nearby_distance": 1000.0
            },
            {
                "station_id": 21,
                "name": "C/ SANT ANTONI MARIA CLARET, 214",
                "physical_configuration": "ELECTRICBIKESTATION",
                "lat": 41.410897,
                "lon": 2.17402,
                "altitude": 59.0,
                "address": "C/ SANT ANTONI MARIA CLARET, 214",
                "post_code": "08908",
                "capacity": 21,
                "nearby_distance": 1000.0
            },
            {
                "station_id": 22,
                "name": "C/ SARDENYA, 292",
                "physical_configuration": "ELECTRICBIKESTATION",
                "lat": 41.401684,
                "lon": 2.17568,
                "altitude": 28.0,
                "address": "C/ SARDENYA, 292",
                "post_code": "08908",
                "capacity": 19,
                "nearby_distance": 1000.0
            },
            {
                "station_id": 23,
                "name": "C/ BRUC, 45",
                "physical_configuration": "ELECTRICBIKESTATION",
                "lat": 41.392526,
                "lon": 2.171812,
                "altitude": 42.0,
                "address": "C/ BRUC, 45",
                "post_code": "08908",
                "capacity": 27,
                "nearby_distance": 1000.0
            },
            {
                "station_id": 24,
                "name": "C/ MARINA, 199",
                "physical_configuration": "ELECTRICBIKESTATION",
                "lat": 41.400659,
                "lon": 2.179111,
                "altitude": 30.0,
                "address": "C/ MARINA, 199",
                "post_code": "08908",
                "capacity": 30,
                "nearby_distance": 1000.0
            },
            {
                "station_id": 25,
                "name": "C/ BRUC, 102",
                "physical_configuration": "ELECTRICBIKESTATION",
                "lat": 41.395179,
                "lon": 2.168294,
                "altitude": 42.0,
                "address": "C/ BRUC, 102",
                "post_code": "08908",
                "capacity": 21,
                "nearby_distance": 1000.0
            },
            {
                "station_id": 26,
                "name": "C/ DOS DE MAIG, 230-232",
                "physical_configuration": "ELECTRICBIKESTATION",
                "lat": 41.407035,
                "lon": 2.181981,
                "altitude": 28.0,
                "address": "C/ DOS DE MAIG, 230-232",
                "post_code": "08908",
                "capacity": 18,
                "nearby_distance": 1000.0
            },
            {
                "station_id": 27,
                "name": "C/ PROVEN\u00c7A, 322",
                "physical_configuration": "ELECTRICBIKESTATION",
                "lat": 41.396897,
                "lon": 2.164373,
                "altitude": 49.0,
                "address": "C/ PROVEN\u00c7A, 322",
                "post_code": "08908",
                "capacity": 21,
                "nearby_distance": 1000.0
            },
            {
                "station_id": 28,
                "name": "C/ SARDENYA, 362",
                "physical_configuration": "ELECTRICBIKESTATION",
                "lat": 41.405422,
                "lon": 2.17064,
                "altitude": 45.0,
                "address": "C/ SARDENYA, 362",
                "post_code": "08908",
                "capacity": 23,
                "nearby_distance": 1000.0
            },
            {
                "station_id": 29,
                "name": "C/ PROVEN\u00c7A, 388-390",
                "physical_configuration": "ELECTRICBIKESTATION",
                "lat": 41.401132,
                "lon": 2.170028,
                "altitude": 50.0,
                "address": "C/ PROVEN\u00c7A, 388-390",
                "post_code": "08908",
                "capacity": 23,
                "nearby_distance": 1000.0
            },
            {
                "station_id": 30,
                "name": "AV. DIAGONAL, 231 AMB PADILLA",
                "physical_configuration": "ELECTRICBIKESTATION",
                "lat": 41.402046,
                "lon": 2.182286,
                "altitude": 28.0,
                "address": "AV. DIAGONAL, 231 AMB PADILLA",
                "post_code": "08908",
                "capacity": 21,
                "nearby_distance": 1000.0
            },
            {
                "station_id": 31,
                "name": "PL. DEL MAR",
                "physical_configuration": "ELECTRICBIKESTATION",
                "lat": 41.37481,
                "lon": 2.18895,
                "altitude": 1.0,
                "address": "PL. DEL MAR",
                "post_code": "08908",
                "capacity": 18,
                "nearby_distance": 1000.0
            },
            {
                "station_id": 32,
                "name": "LA BARCELONETA (CN BARCELONETA)",
                "physical_configuration": "ELECTRICBIKESTATION",
                "lat": 41.373698,
                "lon": 2.188927,
                "altitude": 1.0,
                "address": "LA BARCELONETA (CN BARCELONETA)",
                "post_code": "08908",
                "capacity": 23,
                "nearby_distance": 1000.0
            },
            {
                "station_id": 33,
                "name": "C/ PONTEVEDRA / JUDICI",
                "physical_configuration": "ELECTRICBIKESTATION",
                "lat": 41.376862,
                "lon": 2.190773,
                "altitude": 1.0,
                "address": "C/ PONTEVEDRA / JUDICI",
                "post_code": "08908",
                "capacity": 21,
                "nearby_distance": 1000.0
            },
            {
                "station_id": 34,
                "name": "C/ SANT PERE M\u00c9S ALT, 4",
                "physical_configuration": "ELECTRICBIKESTATION",
                "lat": 41.387074,
                "lon": 2.175247,
                "altitude": 16.0,
                "address": "C/ SANT PERE M\u00c9S ALT, 4",
                "post_code": "08908",
                "capacity": 21,
                "nearby_distance": 1000.0
            },
            {
                "station_id": 35,
                "name": "C/ SANT RAMON DE PENYAFORT, 1",
                "physical_configuration": "ELECTRICBIKESTATION",
                "lat": 41.413592,
                "lon": 2.221153,
                "altitude": 1.0,
                "address": "C/ SANT RAMON DE PENYAFORT, 1",
                "post_code": "08908",
                "capacity": 27,
                "nearby_distance": 1000.0
            },
            {
                "station_id": 36,
                "name": "AV. DE LA CATEDRAL, 6",
                "physical_configuration": "ELECTRICBIKESTATION",
                "lat": 41.385151,
                "lon": 2.176804,
                "altitude": 16.0,
                "address": "AV. DE LA CATEDRAL, 6",
                "post_code": "08908",
                "capacity": 21,
                "nearby_distance": 1000.0
            },
            {
                "station_id": 37,
                "name": "PL. ANTONIO L\u00d3PEZ (CORREUS, VIA LAIETANA",
                "physical_configuration": "ELECTRICBIKESTATION",
                "lat": 41.381226,
                "lon": 2.181888,
                "altitude": 5.0,
                "address": "PL. ANTONIO L\u00d3PEZ (CORREUS, VIA LAIETANA)",
                "post_code": "08908",
                "capacity": 24,
                "nearby_distance": 1000.0
            },
            {
                "station_id": 39,
                "name": "PL.PAU VILA",
                "physical_configuration": "ELECTRICBIKESTATION",
                "lat": 41.381046,
                "lon": 2.186576,
                "altitude": 1.0,
                "address": "PL. PAU VILA",
                "post_code": "08908",
                "capacity": 44,
                "nearby_distance": 1000.0
            },
            {
                "station_id": 40,
                "name": "C/ DOCTOR AIGUADER, 2",
                "physical_configuration": "ELECTRICBIKESTATION",
                "lat": 41.382335,
                "lon": 2.187093,
                "altitude": 1.0,
                "address": "C/ DOCTOR AIGUADER, 2",
                "post_code": "08908",
                "capacity": 18,
                "nearby_distance": 1000.0
            },
            {
                "station_id": 41,
                "name": "PL. POETA BOSC\u00c0/ATL\u00c0NTIDA",
                "physical_configuration": "ELECTRICBIKESTATION",
                "lat": 41.379326,
                "lon": 2.189906,
                "altitude": 1.0,
                "address": "PL. POETA BOSC\u00c0/ATL\u00c0NTIDA",
                "post_code": "08908",
                "capacity": 21,
                "nearby_distance": 1000.0
            },
            {
                "station_id": 42,
                "name": "C/ CIUTAT DE GRANADA, 168 / AV. DIAGONAL",
                "physical_configuration": "ELECTRICBIKESTATION",
                "lat": 41.404511,
                "lon": 2.189881,
                "altitude": 18.0,
                "address": "C/ CIUTAT DE GRANADA, 168 / AV. DIAGONAL",
                "post_code": "08908",
                "capacity": 24,
                "nearby_distance": 1000.0
            },
            {
                "station_id": 43,
                "name": "C/ CLOT, 1",
                "physical_configuration": "ELECTRICBIKESTATION",
                "lat": 41.4064,
                "lon": 2.187382,
                "altitude": 0.0,
                "address": "C/ CLOT, 1",
                "post_code": "08018",
                "capacity": 27,
                "nearby_distance": 1000.0
            },
            {
                "station_id": 44,
                "name": "AV. MERIDIANA, 66 ( COSTAT METRO GLORIES",
                "physical_configuration": "ELECTRICBIKESTATION",
                "lat": 41.402285,
                "lon": 2.187111,
                "altitude": 18.0,
                "address": "AV. MERIDIANA, 66 ( COSTAT METRO GLORIES)",
                "post_code": "08908",
                "capacity": 21,
                "nearby_distance": 1000.0
            },
            {
                "station_id": 45,
                "name": "C/ SARDENYA, 66",
                "physical_configuration": "ELECTRICBIKESTATION",
                "lat": 41.391429,
                "lon": 2.189312,
                "altitude": 18.0,
                "address": "C/ SARDENYA, 66",
                "post_code": "08908",
                "capacity": 27,
                "nearby_distance": 1000.0
            },
            {
                "station_id": 46,
                "name": "C/ RAMON TRIAS FARGAS, 19",
                "physical_configuration": "ELECTRICBIKESTATION",
                "lat": 41.388359,
                "lon": 2.193004,
                "altitude": 1.0,
                "address": "C/ RAMON TRIAS FARGAS, 19",
                "post_code": "08908",
                "capacity": 54,
                "nearby_distance": 1000.0
            },
            {
                "station_id": 47,
                "name": "C/ RAMON TRIAS FARGAS, 21",
                "physical_configuration": "ELECTRICBIKESTATION",
                "lat": 41.389831,
                "lon": 2.191147,
                "altitude": 1.0,
                "address": "C/ RAMON TRIAS FARGAS, 21",
                "post_code": "08908",
                "capacity": 47,
                "nearby_distance": 1000.0
            },
            {
                "station_id": 48,
                "name": "AV. MERIDIANA, 40",
                "physical_configuration": "ELECTRICBIKESTATION",
                "lat": 41.396085,
                "lon": 2.187073,
                "altitude": 18.0,
                "address": "AV. MERIDIANA, 40",
                "post_code": "08908",
                "capacity": 21,
                "nearby_distance": 1000.0
            },
            {
                "station_id": 49,
                "name": "C/ ROSA SENSAT, 20",
                "physical_configuration": "ELECTRICBIKESTATION",
                "lat": 41.39106,
                "lon": 2.196457,
                "altitude": 1.0,
                "address": "C/ ROSA SENSAT, 20",
                "post_code": "08908",
                "capacity": 21,
                "nearby_distance": 1000.0
            },
            {
                "station_id": 50,
                "name": "AV. PARAL.LEL, 54",
                "physical_configuration": "ELECTRICBIKESTATION",
                "lat": 41.375,
                "lon": 2.17035,
                "altitude": 1.0,
                "address": "AV. PARAL.LEL, 54",
                "post_code": "08908",
                "capacity": 18,
                "nearby_distance": 1000.0
            },
            {
                "station_id": 51,
                "name": "PL. VICEN\u00c7 MARTORELL",
                "physical_configuration": "ELECTRICBIKESTATION",
                "lat": 41.384054,
                "lon": 2.169019,
                "altitude": 32.0,
                "address": "PL. VICEN\u00c7 MARTORELL",
                "post_code": "08908",
                "capacity": 20,
                "nearby_distance": 1000.0
            },
            {
                "station_id": 53,
                "name": "PL. CARLES PI I SUNYER",
                "physical_configuration": "ELECTRICBIKESTATION",
                "lat": 41.385227,
                "lon": 2.173878,
                "altitude": 32.0,
                "address": "PL. CARLES PI I SUNYER",
                "post_code": "08908",
                "capacity": 21,
                "nearby_distance": 1000.0
            },
            {
                "station_id": 54,
                "name": "C/ SANT OLEGUER, 2",
                "physical_configuration": "ELECTRICBIKESTATION",
                "lat": 41.377635,
                "lon": 2.170586,
                "altitude": 24.0,
                "address": "C/ SANT OLEGUER, 2",
                "post_code": "08908",
                "capacity": 19,
                "nearby_distance": 1000.0
            },
            {
                "station_id": 55,
                "name": "LA RAMBLA, 80",
                "physical_configuration": "ELECTRICBIKESTATION",
                "lat": 41.381154,
                "lon": 2.173497,
                "altitude": 24.0,
                "address": "LA RAMBLA, 80",
                "post_code": "08908",
                "capacity": 19,
                "nearby_distance": 1000.0
            },
            {
                "station_id": 56,
                "name": "PORTAL DE SANTA MADRONA, 2-4",
                "physical_configuration": "ELECTRICBIKESTATION",
                "lat": 41.377011,
                "lon": 2.175834,
                "altitude": 5.0,
                "address": "PORTAL DE SANTA MADRONA, 2-4",
                "post_code": "08908",
                "capacity": 27,
                "nearby_distance": 1000.0
            },
            {
                "station_id": 57,
                "name": "RAMBLA, 2",
                "physical_configuration": "ELECTRICBIKESTATION",
                "lat": 41.376758,
                "lon": 2.177093,
                "altitude": 5.0,
                "address": "RAMBLA, 2",
                "post_code": "08908",
                "capacity": 25,
                "nearby_distance": 1000.0
            },
            {
                "station_id": 58,
                "name": "PLA\u00c7A DELS \u00c0NGELS ( MACBA )",
                "physical_configuration": "ELECTRICBIKESTATION",
                "lat": 41.382822,
                "lon": 2.167154,
                "altitude": 24.0,
                "address": "PLA\u00c7A DELS \u00c0NGELS ( MACBA )",
                "post_code": "08908",
                "capacity": 21,
                "nearby_distance": 1000.0
            },
            {
                "station_id": 59,
                "name": "PLA\u00c7A DELS \u00c0NGELS (MACBA)",
                "physical_configuration": "ELECTRICBIKESTATION",
                "lat": 41.382781,
                "lon": 2.167203,
                "altitude": 24.0,
                "address": "59 - PLA\u00c7A DELS \u00c0NGELS ( MACBA )",
                "post_code": "08908",
                "capacity": 21,
                "nearby_distance": 1000.0
            },
            {
                "station_id": 60,
                "name": "RAMBLA CATALUNYA, 47",
                "physical_configuration": "ELECTRICBIKESTATION",
                "lat": 41.390349,
                "lon": 2.16424,
                "altitude": 41.0,
                "address": "RAMBLA CATALUNYA, 47",
                "post_code": "08908",
                "capacity": 27,
                "nearby_distance": 1000.0
            },
            {
                "station_id": 61,
                "name": "RAMBLA CATALUNYA, 42",
                "physical_configuration": "ELECTRICBIKESTATION",
                "lat": 41.390143,
                "lon": 2.164946,
                "altitude": 41.0,
                "address": "RAMBLA CATALUNYA, 42",
                "post_code": "08908",
                "capacity": 27,
                "nearby_distance": 1000.0
            },
            {
                "station_id": 62,
                "name": "PL. CATALUNYA, 5",
                "physical_configuration": "ELECTRICBIKESTATION",
                "lat": 41.387142,
                "lon": 2.168858,
                "altitude": 32.0,
                "address": "PL. CATALUNYA, 5",
                "post_code": "08908",
                "capacity": 25,
                "nearby_distance": 1000.0
            },
            {
                "station_id": 63,
                "name": "PL. CATALUNYA, 7",
                "physical_configuration": "ELECTRICBIKESTATION",
                "lat": 41.38645,
                "lon": 2.169463,
                "altitude": 32.0,
                "address": "PL. CATALUNYA, 7",
                "post_code": "08908",
                "capacity": 27,
                "nearby_distance": 1000.0
            },
            {
                "station_id": 64,
                "name": "PL. CATALUNYA, 10-11 (RAMBLA)",
                "physical_configuration": "ELECTRICBIKESTATION",
                "lat": 41.387469,
                "lon": 2.169048,
                "altitude": 32.0,
                "address": "PL. CATALUNYA, 10-11 (RAMBLA)",
                "post_code": "08908",
                "capacity": 21,
                "nearby_distance": 1000.0
            },
            {
                "station_id": 65,
                "name": "PL. CATALUNYA, 10-11 (PG. DE GRACIA)",
                "physical_configuration": "ELECTRICBIKESTATION",
                "lat": 41.387678,
                "lon": 2.169587,
                "altitude": 32.0,
                "address": "PL. CATALUNYA, 10-11 (PG. DE GRACIA)",
                "post_code": "08908",
                "capacity": 21,
                "nearby_distance": 1000.0
            },
            {
                "station_id": 66,
                "name": "GRAN VIA DE LES CORTS CATALANES, 609",
                "physical_configuration": "ELECTRICBIKESTATION",
                "lat": 41.389097,
                "lon": 2.167933,
                "altitude": 32.0,
                "address": "GRAN VIA DE LES CORTS CATALANES, 609",
                "post_code": "08908",
                "capacity": 15,
                "nearby_distance": 1000.0
            },
            {
                "station_id": 67,
                "name": "C/ ROCAFORT, 214 / ROSSELL\u00d3",
                "physical_configuration": "ELECTRICBIKESTATION",
                "lat": 41.385012,
                "lon": 2.145843,
                "altitude": 51.0,
                "address": "C/ ROCAFORT, 214 / ROSSELL\u00d3",
                "post_code": "08908",
                "capacity": 24,
                "nearby_distance": 1000.0
            },
            {
                "station_id": 68,
                "name": "RAMBLA CATALUNYA, 133 /  C\u00d2RSEGA",
                "physical_configuration": "ELECTRICBIKESTATION",
                "lat": 41.395364,
                "lon": 2.157356,
                "altitude": 59.0,
                "address": "RAMBLA CATALUNYA, 133 /  C\u00d2RSEGA",
                "post_code": "08908",
                "capacity": 27,
                "nearby_distance": 1000.0
            },
            {
                "station_id": 69,
                "name": "CARRER DE LA MARINA,25-33",
                "physical_configuration": "ELECTRICBIKESTATION",
                "lat": 41.38797,
                "lon": 2.195801,
                "altitude": 8.0,
                "address": "CARRER DE LA MARINA,25-33",
                "post_code": "08908",
                "capacity": 20,
                "nearby_distance": 1000.0
            },
            {
                "station_id": 70,
                "name": "C/ COMTE URGELL, 23",
                "physical_configuration": "ELECTRICBIKESTATION",
                "lat": 41.380347,
                "lon": 2.160695,
                "altitude": 35.0,
                "address": "C/ COMTE URGELL, 23",
                "post_code": "08908",
                "capacity": 27,
                "nearby_distance": 1000.0
            },
            {
                "station_id": 71,
                "name": "C/ FLORIDABLANCA, 145",
                "physical_configuration": "ELECTRICBIKESTATION",
                "lat": 41.381931,
                "lon": 2.162969,
                "altitude": 35.0,
                "address": "C/ FLORIDABLANCA, 145",
                "post_code": "08908",
                "capacity": 21,
                "nearby_distance": 1000.0
            },
            {
                "station_id": 72,
                "name": "C/ PROVEN\u00c7A, 215",
                "physical_configuration": "ELECTRICBIKESTATION",
                "lat": 41.392716,
                "lon": 2.158811,
                "altitude": 55.0,
                "address": "C/ PROVEN\u00c7A, 215",
                "post_code": "08908",
                "capacity": 27,
                "nearby_distance": 1000.0
            },
            {
                "station_id": 73,
                "name": "C/ ENRIC GRANADOS, 93",
                "physical_configuration": "ELECTRICBIKESTATION",
                "lat": 41.392278,
                "lon": 2.156183,
                "altitude": 59.0,
                "address": "C/ ENRIC GRANADOS, 93",
                "post_code": "08908",
                "capacity": 27,
                "nearby_distance": 1000.0
            },
            {
                "station_id": 74,
                "name": "AV. JOSEP TARRADELLAS, 133",
                "physical_configuration": "ELECTRICBIKESTATION",
                "lat": 41.390062,
                "lon": 2.143272,
                "altitude": 51.0,
                "address": "AV. JOSEP TARRADELLAS, 133",
                "post_code": "08908",
                "capacity": 15,
                "nearby_distance": 1000.0
            },
            {
                "station_id": 75,
                "name": "AV. JOSEP TARRADELLAS, 58",
                "physical_configuration": "ELECTRICBIKESTATION",
                "lat": 41.385081,
                "lon": 2.142868,
                "altitude": 51.0,
                "address": "AV. JOSEP TARRADELLAS, 58",
                "post_code": "08908",
                "capacity": 21,
                "nearby_distance": 1000.0
            },
            {
                "station_id": 76,
                "name": "C/ C\u00d2RSEGA, 216",
                "physical_configuration": "ELECTRICBIKESTATION",
                "lat": 41.391751,
                "lon": 2.153123,
                "altitude": 45.0,
                "address": "C/ C\u00d2RSEGA, 216",
                "post_code": "08908",
                "capacity": 32,
                "nearby_distance": 1000.0
            },
            {
                "station_id": 78,
                "name": "PL. UNIVERSITAT /  ARIBAU",
                "physical_configuration": "ELECTRICBIKESTATION",
                "lat": 41.3856691,
                "lon": 2.1634139,
                "altitude": 41.0,
                "address": "PL. UNIVERSITAT /  ARIBAU",
                "post_code": "08908",
                "capacity": 27,
                "nearby_distance": 1000.0
            },
            {
                "station_id": 79,
                "name": "PL.  UNIVERSITAT",
                "physical_configuration": "ELECTRICBIKESTATION",
                "lat": 41.3854435,
                "lon": 2.1634297,
                "altitude": 41.0,
                "address": "PL. UNIVERSITAT",
                "post_code": "08908",
                "capacity": 24,
                "nearby_distance": 1000.0
            },
            {
                "station_id": 80,
                "name": "C/ ENRIC  GRANADOS, 35",
                "physical_configuration": "ELECTRICBIKESTATION",
                "lat": 41.390008,
                "lon": 2.1599551,
                "altitude": 41.0,
                "address": "C/ ENRIC  GRANADOS, 35",
                "post_code": "08908",
                "capacity": 21,
                "nearby_distance": 1000.0
            },
            {
                "station_id": 81,
                "name": "C/ VILAMAR\u00cd,  61",
                "physical_configuration": "ELECTRICBIKESTATION",
                "lat": 41.3790058,
                "lon": 2.1490856,
                "altitude": 44.0,
                "address": "C/ VILAMAR\u00cd,  61",
                "post_code": "08908",
                "capacity": 21,
                "nearby_distance": 1000.0
            },
            {
                "station_id": 82,
                "name": "C/ ROCAFORT, 72-74",
                "physical_configuration": "ELECTRICBIKESTATION",
                "lat": 41.3787972,
                "lon": 2.1533895,
                "altitude": 40.0,
                "address": "C/ ROCAFORT, 72-74",
                "post_code": "08908",
                "capacity": 33,
                "nearby_distance": 1000.0
            },
            {
                "station_id": 83,
                "name": "C/ COMTE BORRELL, 177",
                "physical_configuration": "ELECTRICBIKESTATION",
                "lat": 41.3840885,
                "lon": 2.1537733,
                "altitude": 45.0,
                "address": "C/ COMTE BORRELL, 177",
                "post_code": "08908",
                "capacity": 24,
                "nearby_distance": 1000.0
            },
            {
                "station_id": 84,
                "name": "C/ DEL COMTE D'URGELL, 75 B",
                "physical_configuration": "ELECTRICBIKESTATION",
                "lat": 41.3831216,
                "lon": 2.1572314,
                "altitude": 35.0,
                "address": "C/ DEL COMTE D'URGELL, 75 B",
                "post_code": "08908",
                "capacity": 27,
                "nearby_distance": 1000.0
            },
            {
                "station_id": 85,
                "name": "AV. PARAL\u00b7LEL, 146 BIS",
                "physical_configuration": "ELECTRICBIKESTATION",
                "lat": 41.3750672,
                "lon": 2.159005,
                "altitude": 35.0,
                "address": "AV. PARAL\u00b7LEL, 146 BIS",
                "post_code": "08908",
                "capacity": 24,
                "nearby_distance": 1000.0
            },
            {
                "station_id": 86,
                "name": "C/ VILADOMAT,  2",
                "physical_configuration": "ELECTRICBIKESTATION",
                "lat": 41.3752683,
                "lon": 2.1630981,
                "altitude": 35.0,
                "address": "C/ VILADOMAT,  2",
                "post_code": "08908",
                "capacity": 27,
                "nearby_distance": 1000.0
            },
            {
                "station_id": 87,
                "name": "C/ MALLORCA, 41-43",
                "physical_configuration": "ELECTRICBIKESTATION",
                "lat": 41.3832053,
                "lon": 2.1486715,
                "altitude": 44.0,
                "address": "C/ MALLORCA, 41-43",
                "post_code": "08908",
                "capacity": 21,
                "nearby_distance": 1000.0
            },
            {
                "station_id": 88,
                "name": "C/ LONDRES, 101-103",
                "physical_configuration": "ELECTRICBIKESTATION",
                "lat": 41.3935986,
                "lon": 2.1506554,
                "altitude": 59.0,
                "address": "C/ LONDRES, 101-103",
                "post_code": "08908",
                "capacity": 20,
                "nearby_distance": 1000.0
            },
            {
                "station_id": 89,
                "name": "C/ ROSSELL\u00d3,  101",
                "physical_configuration": "ELECTRICBIKESTATION",
                "lat": 41.388154,
                "lon": 2.1503428,
                "altitude": 45.0,
                "address": "C/ ROSSELL\u00d3,  101",
                "post_code": "08908",
                "capacity": 27,
                "nearby_distance": 1000.0
            },
            {
                "station_id": 90,
                "name": "C/ ROSSELL\u00d3, 108-110",
                "physical_configuration": "ELECTRICBIKESTATION",
                "lat": 41.3884249,
                "lon": 2.1507832,
                "altitude": 45.0,
                "address": "C/ ROSSELL\u00d3, 108-110",
                "post_code": "08908",
                "capacity": 18,
                "nearby_distance": 1000.0
            },
            {
                "station_id": 92,
                "name": "C / PROVEN\u00c7A, 241",
                "physical_configuration": "ELECTRICBIKESTATION",
                "lat": 41.3937852,
                "lon": 2.1602704,
                "altitude": 50.0,
                "address": "C / PROVEN\u00c7A, 241",
                "post_code": "08908",
                "capacity": 18,
                "nearby_distance": 1000.0
            },
            {
                "station_id": 93,
                "name": "GRAN VIA DE LES CORTS CATALANES, 375",
                "physical_configuration": "ELECTRICBIKESTATION",
                "lat": 41.3755595,
                "lon": 2.1499725,
                "altitude": 40.0,
                "address": "GRAN VIA DE LES CORTS CATALANES, 375-385",
                "post_code": "08908",
                "capacity": 24,
                "nearby_distance": 1000.0
            },
            {
                "station_id": 94,
                "name": "GRAN VIA DE LES CORTS CATALANES,375",
                "physical_configuration": "ELECTRICBIKESTATION",
                "lat": 41.3755704,
                "lon": 2.1500681,
                "altitude": 40.0,
                "address": "GRAN  VIA DE LES CORTS CATALANES, 375-385",
                "post_code": "08908",
                "capacity": 24,
                "nearby_distance": 1000.0
            },
            {
                "station_id": 95,
                "name": "C/ TARRAGONA, 103-115",
                "physical_configuration": "ELECTRICBIKESTATION",
                "lat": 41.3766488,
                "lon": 2.1476883,
                "altitude": 44.0,
                "address": "C/ TARRAGONA, 103-115",
                "post_code": "08908",
                "capacity": 33,
                "nearby_distance": 1000.0
            },
            {
                "station_id": 96,
                "name": "GRAN VIA DE LES CORTS CATALANES,  361",
                "physical_configuration": "ELECTRICBIKESTATION",
                "lat": 41.3742316,
                "lon": 2.1483861,
                "altitude": 61.0,
                "address": "GRAN VIA DE LES CORTS CATALANES, 361",
                "post_code": "08908",
                "capacity": 21,
                "nearby_distance": 1000.0
            },
            {
                "station_id": 97,
                "name": "C/ TARRAGONA, 141",
                "physical_configuration": "ELECTRICBIKESTATION",
                "lat": 41.3782369,
                "lon": 2.145503,
                "altitude": 44.0,
                "address": "C/ TARRAGONA, 141",
                "post_code": "08908",
                "capacity": 21,
                "nearby_distance": 1000.0
            },
            {
                "station_id": 98,
                "name": "C/ VIRIAT, 43",
                "physical_configuration": "ELECTRICBIKESTATION",
                "lat": 41.3803803,
                "lon": 2.1409726,
                "altitude": 44.0,
                "address": "C/ VIRIAT, 43",
                "post_code": "08908",
                "capacity": 21,
                "nearby_distance": 1000.0
            },
            {
                "station_id": 99,
                "name": "C/ VIRIAT,  53",
                "physical_configuration": "ELECTRICBIKESTATION",
                "lat": 41.380632,
                "lon": 2.141548,
                "altitude": 44.0,
                "address": "C/ VIRIAT,  53",
                "post_code": "08908",
                "capacity": 21,
                "nearby_distance": 1000.0
            },
            {
                "station_id": 100,
                "name": "C/ TARRAGONA,  159-173",
                "physical_configuration": "ELECTRICBIKESTATION",
                "lat": 41.3791661,
                "lon": 2.1440132,
                "altitude": 44.0,
                "address": "C/ TARRAGONA,  159-173",
                "post_code": "08908",
                "capacity": 22,
                "nearby_distance": 1000.0
            },
            {
                "station_id": 101,
                "name": "AV. DIAGONAL,  602",
                "physical_configuration": "ELECTRICBIKESTATION",
                "lat": 41.3927878,
                "lon": 2.1434059,
                "altitude": 69.0,
                "address": "AV. DIAGONAL,  602",
                "post_code": "08908",
                "capacity": 24,
                "nearby_distance": 1000.0
            },
            {
                "station_id": 102,
                "name": "AV. DIAGONAL,  612",
                "physical_configuration": "ELECTRICBIKESTATION",
                "lat": 41.3922519,
                "lon": 2.1420435,
                "altitude": 69.0,
                "address": "AV. DIAGONAL,  612",
                "post_code": "08908",
                "capacity": 24,
                "nearby_distance": 1000.0
            },
            {
                "station_id": 103,
                "name": "C/ ARAG\u00d3, 629",
                "physical_configuration": "ELECTRICBIKESTATION",
                "lat": 41.4098264,
                "lon": 2.1883486,
                "altitude": 17.0,
                "address": "C/ ARAG\u00d3, 629",
                "post_code": "08908",
                "capacity": 21,
                "nearby_distance": 1000.0
            },
            {
                "station_id": 104,
                "name": "C/ VAL\u00c8NCIA,  621",
                "physical_configuration": "ELECTRICBIKESTATION",
                "lat": 41.4108567,
                "lon": 2.1872941,
                "altitude": 17.0,
                "address": "C/ VAL\u00c8NCIA, 621",
                "post_code": "08908",
                "capacity": 26,
                "nearby_distance": 1000.0
            },
            {
                "station_id": 105,
                "name": "PL. URQUINAONA, 9-10",
                "physical_configuration": "ELECTRICBIKESTATION",
                "lat": 41.389197,
                "lon": 2.173555,
                "altitude": 32.0,
                "address": "PL. URQUINAONA, 9-10",
                "post_code": "08908",
                "capacity": 21,
                "nearby_distance": 1000.0
            },
            {
                "station_id": 106,
                "name": "PL  JOANIC - C / BRUNIQUER, 59",
                "physical_configuration": "ELECTRICBIKESTATION",
                "lat": 41.4056,
                "lon": 2.1623,
                "altitude": 59.0,
                "address": "PL  JOANIC - C / BRUNIQUER, 59",
                "post_code": "08908",
                "capacity": 20,
                "nearby_distance": 1000.0
            },
            {
                "station_id": 107,
                "name": "TRAV. DE GR\u00c0CIA, 92 / VIA AUGUSTA",
                "physical_configuration": "ELECTRICBIKESTATION",
                "lat": 41.3985611,
                "lon": 2.1530513,
                "altitude": 59.0,
                "address": "TRAV. DE GR\u00c0CIA, 92 / VIA AUGUSTA",
                "post_code": "08908",
                "capacity": 20,
                "nearby_distance": 1000.0
            },
            {
                "station_id": 108,
                "name": "C / IND\u00daSTRIA, 10",
                "physical_configuration": "ELECTRICBIKESTATION",
                "lat": 41.4024328,
                "lon": 2.1648503,
                "altitude": 59.0,
                "address": "C / IND\u00daSTRIA, 10",
                "post_code": "08908",
                "capacity": 21,
                "nearby_distance": 1000.0
            },
            {
                "station_id": 109,
                "name": "C/ LONDRES,  53",
                "physical_configuration": "ELECTRICBIKESTATION",
                "lat": 41.390936,
                "lon": 2.1474257,
                "altitude": 51.0,
                "address": "C/ LONDRES,  53",
                "post_code": "08908",
                "capacity": 24,
                "nearby_distance": 1000.0
            },
            {
                "station_id": 110,
                "name": "AV. ROMA,  136",
                "physical_configuration": "ELECTRICBIKESTATION",
                "lat": 41.3857053,
                "lon": 2.1547191,
                "altitude": 43.0,
                "address": "AV. ROMA,  136",
                "post_code": "08908",
                "capacity": 21,
                "nearby_distance": 1000.0
            },
            {
                "station_id": 111,
                "name": "C/ CAL\u00c0BRIA,  137",
                "physical_configuration": "ELECTRICBIKESTATION",
                "lat": 41.3813141,
                "lon": 2.1527471,
                "altitude": 41.0,
                "address": "C/ CAL\u00c0BRIA, 137",
                "post_code": "08908",
                "capacity": 27,
                "nearby_distance": 1000.0
            },
            {
                "station_id": 112,
                "name": "C/ FLORIDABLANCA,  49",
                "physical_configuration": "ELECTRICBIKESTATION",
                "lat": 41.3776061,
                "lon": 2.1572895,
                "altitude": 40.0,
                "address": "C/ FLORIDABLANCA, 49",
                "post_code": "08908",
                "capacity": 20,
                "nearby_distance": 1000.0
            },
            {
                "station_id": 113,
                "name": "RONDA DE SANT PAU , 51",
                "physical_configuration": "ELECTRICBIKESTATION",
                "lat": 41.3774096,
                "lon": 2.1648261,
                "altitude": 30.0,
                "address": "RONDA DE SANT PAU, 51",
                "post_code": "08908",
                "capacity": 27,
                "nearby_distance": 1000.0
            },
            {
                "station_id": 114,
                "name": "PL. JEAN GENET,  1",
                "physical_configuration": "ELECTRICBIKESTATION",
                "lat": 41.3768334,
                "lon": 2.1737389,
                "altitude": 24.0,
                "address": "PL. JEAN GENET,  1",
                "post_code": "08908",
                "capacity": 20,
                "nearby_distance": 1000.0
            },
            {
                "station_id": 115,
                "name": "AV. MARQU\u00c9S DE L'ARGENTERA,  3",
                "physical_configuration": "ELECTRICBIKESTATION",
                "lat": 41.3837312,
                "lon": 2.1841477,
                "altitude": 1.0,
                "address": "AV. MARQU\u00c9S DE L'ARGENTERA,  3",
                "post_code": "08908",
                "capacity": 21,
                "nearby_distance": 1000.0
            },
            {
                "station_id": 116,
                "name": "C/ DEL DR. AIGUADER, 72 / PG. SALVAT",
                "physical_configuration": "ELECTRICBIKESTATION",
                "lat": 41.3839396,
                "lon": 2.1916731,
                "altitude": 11.0,
                "address": "C/ DEL DR. AIGUADER, 72 / PG. SALVAT PAPASSEIT",
                "post_code": "08908",
                "capacity": 27,
                "nearby_distance": 1000.0
            },
            {
                "station_id": 117,
                "name": "C/ ROSA SENSAT, 12",
                "physical_configuration": "ELECTRICBIKESTATION",
                "lat": 41.3907885,
                "lon": 2.1969509,
                "altitude": 1.0,
                "address": "C/ ROSA SENSAT, 12",
                "post_code": "08908",
                "capacity": 21,
                "nearby_distance": 1000.0
            },
            {
                "station_id": 118,
                "name": "C/ PUJADES,  3",
                "physical_configuration": "ELECTRICBIKESTATION",
                "lat": 41.3919909,
                "lon": 2.1879553,
                "altitude": 18.0,
                "address": "C/ PUJADES,  3",
                "post_code": "08908",
                "capacity": 27,
                "nearby_distance": 1000.0
            },
            {
                "station_id": 119,
                "name": "C/ SARDENYA,  178",
                "physical_configuration": "ELECTRICBIKESTATION",
                "lat": 41.3966226,
                "lon": 2.1823944,
                "altitude": 21.0,
                "address": "C/ SARDENYA,  178",
                "post_code": "08908",
                "capacity": 27,
                "nearby_distance": 1000.0
            },
            {
                "station_id": 120,
                "name": "C/ LEPANT,  278",
                "physical_configuration": "ELECTRICBIKESTATION",
                "lat": 41.4045867,
                "lon": 2.1765086,
                "altitude": 28.0,
                "address": "C/ LEPANT,  278",
                "post_code": "08908",
                "capacity": 21,
                "nearby_distance": 1000.0
            },
            {
                "station_id": 121,
                "name": "C/ CASTILLEJOS, 258",
                "physical_configuration": "ELECTRICBIKESTATION",
                "lat": 41.4061885,
                "lon": 2.1785208,
                "altitude": 28.0,
                "address": "C/ CASTILLEJOS, 258",
                "post_code": "08908",
                "capacity": 21,
                "nearby_distance": 1000.0
            },
            {
                "station_id": 122,
                "name": "C/ N\u00c0POLS, 344",
                "physical_configuration": "ELECTRICBIKESTATION",
                "lat": 41.4053379,
                "lon": 2.1660973,
                "altitude": 59.0,
                "address": "C/ N\u00c0POLS, 344",
                "post_code": "08908",
                "capacity": 21,
                "nearby_distance": 1000.0
            },
            {
                "station_id": 123,
                "name": "C/ GIRONA, 142",
                "physical_configuration": "ELECTRICBIKESTATION",
                "lat": 41.398114,
                "lon": 2.166828,
                "altitude": 45.0,
                "address": "C/ GIRONA, 142",
                "post_code": "08908",
                "capacity": 21,
                "nearby_distance": 1000.0
            },
            {
                "station_id": 124,
                "name": "C/ NOVA  BOCANA",
                "physical_configuration": "ELECTRICBIKESTATION",
                "lat": 41.3702482637018,
                "lon": 2.1878125984221697,
                "altitude": 5.0,
                "address": "C/ NOVA  BOCANA",
                "post_code": "08908",
                "capacity": 27,
                "nearby_distance": 1000.0
            },
            {
                "station_id": 125,
                "name": "PG. MAR\u00edTIM, 31 B (ANNEXA A LA  12)",
                "physical_configuration": "ELECTRICBIKESTATION",
                "lat": 41.3844693,
                "lon": 2.1955147,
                "altitude": 1.0,
                "address": "PG. MAR\u00edTIM, 31 B (ANNEXA A LA  12)",
                "post_code": "08908",
                "capacity": 21,
                "nearby_distance": 1000.0
            },
            {
                "station_id": 126,
                "name": "PG. DE COLOM /VIA LAIETANA",
                "physical_configuration": "ELECTRICBIKESTATION",
                "lat": 41.3806785,
                "lon": 2.1817748,
                "altitude": 5.0,
                "address": "PG. DE COLOM /VIA LAIETANA",
                "post_code": "08908",
                "capacity": 23,
                "nearby_distance": 1000.0
            },
            {
                "station_id": 127,
                "name": "C/ ARAG\u00d3, 659 / NAVAS DE TOLOSA",
                "physical_configuration": "ELECTRICBIKESTATION",
                "lat": 41.4118718,
                "lon": 2.1911494,
                "altitude": 17.0,
                "address": "C/ ARAG\u00d3, 659 /NAVAS DE TOLOSA",
                "post_code": "08908",
                "capacity": 27,
                "nearby_distance": 1000.0
            },
            {
                "station_id": 128,
                "name": "RAMBLA DE GUIP\u00daSCOA, 43/FLUVI\u00c0",
                "physical_configuration": "ELECTRICBIKESTATION",
                "lat": 41.4154133,
                "lon": 2.1964181,
                "altitude": 13.0,
                "address": "RAMBLA DE GUIP\u00daSCOA, 43/FLUVI\u00c0",
                "post_code": "08908",
                "capacity": 28,
                "nearby_distance": 1000.0
            },
            {
                "station_id": 129,
                "name": "C/ MANSO, 46",
                "physical_configuration": "ELECTRICBIKESTATION",
                "lat": 41.3770515,
                "lon": 2.1611378,
                "altitude": 35.0,
                "address": "C/ MANSO, 46",
                "post_code": "08908",
                "capacity": 27,
                "nearby_distance": 1000.0
            },
            {
                "station_id": 130,
                "name": "RAMBLA DE GUIP\u00daSCOA, 103 / CANT\u00c0BRIA",
                "physical_configuration": "ELECTRICBIKESTATION",
                "lat": 41.4198281,
                "lon": 2.201574,
                "altitude": 9.0,
                "address": "RAMBLA DE GUIP\u00daSCOA, 103 /CANT\u00c0BRIA",
                "post_code": "08908",
                "capacity": 24,
                "nearby_distance": 1000.0
            },
            {
                "station_id": 131,
                "name": "RAMBLA  DE GUIP\u00daSCOA, 158/ CA N'OLIVA",
                "physical_configuration": "ELECTRICBIKESTATION",
                "lat": 41.422785,
                "lon": 2.20594,
                "altitude": 9.0,
                "address": "RAMBLA  DE GUIP\u00daSCOA, 158/ CA N'OLIVA",
                "post_code": "08908",
                "capacity": 27,
                "nearby_distance": 1000.0
            },
            {
                "station_id": 132,
                "name": "PL. VALENT\u00cd ALMIRALL",
                "physical_configuration": "ELECTRICBIKESTATION",
                "lat": 41.4084554,
                "lon": 2.1919802,
                "altitude": 13.0,
                "address": "PL.VALENT\u00cd ALMIRALL",
                "post_code": "08908",
                "capacity": 27,
                "nearby_distance": 1000.0
            },
            {
                "station_id": 133,
                "name": "GRAN VIA DE LES CORTS CATALANES,  902",
                "physical_configuration": "ELECTRICBIKESTATION",
                "lat": 41.4076602,
                "lon": 2.1924881,
                "altitude": 16.0,
                "address": "GRAN VIA DE LES CORTS CATALANES, 902",
                "post_code": "08908",
                "capacity": 16,
                "nearby_distance": 1000.0
            },
            {
                "station_id": 134,
                "name": "C/ BAC DE RODA, 157",
                "physical_configuration": "ELECTRICBIKESTATION",
                "lat": 41.4115934,
                "lon": 2.1987619,
                "altitude": 10.0,
                "address": "C/ BAC DE RODA, 157",
                "post_code": "08908",
                "capacity": 21,
                "nearby_distance": 1000.0
            },
            {
                "station_id": 135,
                "name": "GRAN VIA DE LES CORTS CATALANES,  981",
                "physical_configuration": "ELECTRICBIKESTATION",
                "lat": 41.4121316,
                "lon": 2.1977579,
                "altitude": 13.0,
                "address": "GRAN VIA DE LES CORTS CATALANES,  981",
                "post_code": "08908",
                "capacity": 21,
                "nearby_distance": 1000.0
            },
            {
                "station_id": 136,
                "name": "GRAN VIA DE LES CORTS CATALANES,  1062",
                "physical_configuration": "ELECTRICBIKESTATION",
                "lat": 41.4141813,
                "lon": 2.2015894,
                "altitude": 9.0,
                "address": "GRAN VIA DE LES CORTS CATALANES,  1062",
                "post_code": "08908",
                "capacity": 27,
                "nearby_distance": 1000.0
            },
            {
                "station_id": 137,
                "name": "GRAN VIA DE LES CORTS CATALANES , 1041",
                "physical_configuration": "ELECTRICBIKESTATION",
                "lat": 41.4144656,
                "lon": 2.2014244,
                "altitude": 9.0,
                "address": "GRAN VIA DE LES CORTS CATALANES, 1041",
                "post_code": "08908",
                "capacity": 24,
                "nearby_distance": 1000.0
            },
            {
                "station_id": 138,
                "name": "GRAN VIA DE LES CORTS CATALANES,  1118",
                "physical_configuration": "ELECTRICBIKESTATION",
                "lat": 41.416832,
                "lon": 2.2053065,
                "altitude": 9.0,
                "address": "GRAN VIA DE LES CORTS CATALANES, 1118",
                "post_code": "08908",
                "capacity": 21,
                "nearby_distance": 1000.0
            },
            {
                "station_id": 139,
                "name": "GRAN VIA DE LES CORTS CATALANES,  1131",
                "physical_configuration": "ELECTRICBIKESTATION",
                "lat": 41.4179241,
                "lon": 2.2061937,
                "altitude": 9.0,
                "address": "GRAN VIA DE LES CORTS CATALANES,  1131",
                "post_code": "08908",
                "capacity": 32,
                "nearby_distance": 1000.0
            },
            {
                "station_id": 140,
                "name": "C/ VILADOMAT,  122",
                "physical_configuration": "ELECTRICBIKESTATION",
                "lat": 41.3806648,
                "lon": 2.15625,
                "altitude": 41.0,
                "address": "C/ VILADOMAT, 122",
                "post_code": "08908",
                "capacity": 27,
                "nearby_distance": 1000.0
            },
            {
                "station_id": 141,
                "name": "GRAN VIA DE LES CORTS CATALANES ,  940",
                "physical_configuration": "ELECTRICBIKESTATION",
                "lat": 41.4090158,
                "lon": 2.1946377,
                "altitude": 13.0,
                "address": "GRAN VIA DE LES CORTS CATALANES ,  940",
                "post_code": "08908",
                "capacity": 32,
                "nearby_distance": 1000.0
            },
            {
                "station_id": 142,
                "name": "C/ SANCHO DE \u00c1VILA,  104 - C/ BADAJOZ",
                "physical_configuration": "ELECTRICBIKESTATION",
                "lat": 41.4005692,
                "lon": 2.1923425,
                "altitude": 16.0,
                "address": "C/ SANCHO DE \u00c1VILA,  104 - C/ BADAJOZ",
                "post_code": "08908",
                "capacity": 32,
                "nearby_distance": 1000.0
            },
            {
                "station_id": 143,
                "name": "C/ SANCHO DE \u00c1VILA, 170 / LLACUNA",
                "physical_configuration": "ELECTRICBIKESTATION",
                "lat": 41.4030725,
                "lon": 2.1959541,
                "altitude": 16.0,
                "address": "C/ SANCHO DE \u00c1VILA, 170 / LLACUNA",
                "post_code": "08908",
                "capacity": 27,
                "nearby_distance": 1000.0
            },
            {
                "station_id": 144,
                "name": "C/ CASTELLA,  28 / DIAGONAL",
                "physical_configuration": "ELECTRICBIKESTATION",
                "lat": 41.4057871,
                "lon": 2.1975542,
                "altitude": 16.0,
                "address": "C/ CASTELLA,  28 / DIAGONAL",
                "post_code": "08908",
                "capacity": 27,
                "nearby_distance": 1000.0
            },
            {
                "station_id": 145,
                "name": "C/ PERE IV,  301 / FLUVI\u00c0",
                "physical_configuration": "ELECTRICBIKESTATION",
                "lat": 41.4099066,
                "lon": 2.2028356,
                "altitude": 9.0,
                "address": "C/ PERE IV,  301 / FLUVI\u00c0",
                "post_code": "08908",
                "capacity": 27,
                "nearby_distance": 1000.0
            },
            {
                "station_id": 146,
                "name": "C/ PERE IV, 488",
                "physical_configuration": "ELECTRICBIKESTATION",
                "lat": 41.415144,
                "lon": 2.207206,
                "altitude": 9.0,
                "address": "C/ PERE IV, 488",
                "post_code": "08908",
                "capacity": 15,
                "nearby_distance": 1000.0
            },
            {
                "station_id": 147,
                "name": "RAMBLA PRIM, 79",
                "physical_configuration": "ELECTRICBIKESTATION",
                "lat": 41.416018,
                "lon": 2.212658,
                "altitude": 5.0,
                "address": "RAMBLA PRIM, 79",
                "post_code": "08908",
                "capacity": 27,
                "nearby_distance": 1000.0
            },
            {
                "station_id": 148,
                "name": "RONDA SANT PAU, 79",
                "physical_configuration": "ELECTRICBIKESTATION",
                "lat": 41.378486,
                "lon": 2.163404,
                "altitude": 12.0,
                "address": "RONDA SANT PAU, 79",
                "post_code": "08908",
                "capacity": 27,
                "nearby_distance": 1000.0
            },
            {
                "station_id": 149,
                "name": "C/ PUJADES, 57B",
                "physical_configuration": "ELECTRICBIKESTATION",
                "lat": 41.395905,
                "lon": 2.192958,
                "altitude": 11.0,
                "address": "149 - C/ PUJADES, 57B",
                "post_code": "08908",
                "capacity": 27,
                "nearby_distance": 1000.0
            },
            {
                "station_id": 150,
                "name": "C/ ESPRONCEDA, 124",
                "physical_configuration": "ELECTRICBIKESTATION",
                "lat": 41.406549,
                "lon": 2.203112,
                "altitude": 10.0,
                "address": "C/ ESPRONCEDA, 124",
                "post_code": "08908",
                "capacity": 27,
                "nearby_distance": 1000.0
            },
            {
                "station_id": 151,
                "name": "C/ PALLARS, 182",
                "physical_configuration": "ELECTRICBIKESTATION",
                "lat": 41.40065,
                "lon": 2.19719,
                "altitude": 6.0,
                "address": "C/ PALLARS, 182",
                "post_code": "08908",
                "capacity": 27,
                "nearby_distance": 1000.0
            },
            {
                "station_id": 152,
                "name": "C/ PUJADES, 121",
                "physical_configuration": "ELECTRICBIKESTATION",
                "lat": 41.39925,
                "lon": 2.197421,
                "altitude": 11.0,
                "address": "C/ PUJADES, 121",
                "post_code": "08908",
                "capacity": 27,
                "nearby_distance": 1000.0
            },
            {
                "station_id": 153,
                "name": "C/ PUJADES, 173/RAMBLA DEL POBLE NOU",
                "physical_configuration": "ELECTRICBIKESTATION",
                "lat": 41.401778,
                "lon": 2.200769,
                "altitude": 10.0,
                "address": "C/ PUJADES, 173/RAMBLA DEL POBLE NOU",
                "post_code": "08908",
                "capacity": 23,
                "nearby_distance": 1000.0
            },
            {
                "station_id": 154,
                "name": "C/ PUJADES, 191",
                "physical_configuration": "ELECTRICBIKESTATION",
                "lat": 41.402454,
                "lon": 2.201656,
                "altitude": 10.0,
                "address": "C/ PUJADES, 191",
                "post_code": "08908",
                "capacity": 32,
                "nearby_distance": 1000.0
            },
            {
                "station_id": 155,
                "name": "C/ PUJADES, 311/ FLUVI\u00c0",
                "physical_configuration": "ELECTRICBIKESTATION",
                "lat": 41.406977,
                "lon": 2.207602,
                "altitude": 10.0,
                "address": "C/ PUJADES, 311/ FLUVI\u00c0",
                "post_code": "08908",
                "capacity": 32,
                "nearby_distance": 1000.0
            },
            {
                "station_id": 156,
                "name": "C/ SELVA DE MAR, 46",
                "physical_configuration": "ELECTRICBIKESTATION",
                "lat": 41.409017,
                "lon": 2.20881,
                "altitude": 5.0,
                "address": "C/ SELVA DE MAR, 46",
                "post_code": "08908",
                "capacity": 27,
                "nearby_distance": 1000.0
            },
            {
                "station_id": 157,
                "name": "C/ LLULL, 465",
                "physical_configuration": "ELECTRICBIKESTATION",
                "lat": 41.412942,
                "lon": 2.217994,
                "altitude": 0.1,
                "address": "C/ LLULL, 465",
                "post_code": "08908",
                "capacity": 24,
                "nearby_distance": 1000.0
            },
            {
                "station_id": 158,
                "name": "RAMBLA DE PRIM, 19",
                "physical_configuration": "ELECTRICBIKESTATION",
                "lat": 41.411741,
                "lon": 2.218546,
                "altitude": 1.0,
                "address": "RAMBLA DE PRIM, 19",
                "post_code": "08908",
                "capacity": 27,
                "nearby_distance": 1000.0
            },
            {
                "station_id": 159,
                "name": "AV. DIAGONAL, 26",
                "physical_configuration": "ELECTRICBIKESTATION",
                "lat": 41.410882,
                "lon": 2.216703,
                "altitude": 5.0,
                "address": "AV. DIAGONAL, 26",
                "post_code": "08908",
                "capacity": 32,
                "nearby_distance": 1000.0
            },
            {
                "station_id": 160,
                "name": "AV. D'EDUARD MARISTANY, 1 /FORUM",
                "physical_configuration": "ELECTRICBIKESTATION",
                "lat": 41.411026,
                "lon": 2.219377,
                "altitude": 1.0,
                "address": "AV. D'EDUARD MARISTANY, 1 /FORUM",
                "post_code": "08908",
                "capacity": 33,
                "nearby_distance": 1000.0
            },
            {
                "station_id": 161,
                "name": "C/ RAMON TURR\u00d3, 91",
                "physical_configuration": "ELECTRICBIKESTATION",
                "lat": 41.395009,
                "lon": 2.196308,
                "altitude": 11.0,
                "address": "C/ RAMON TURR\u00d3, 91",
                "post_code": "08908",
                "capacity": 27,
                "nearby_distance": 1000.0
            },
            {
                "station_id": 162,
                "name": "C/ RAMON TURR\u00d3, 292",
                "physical_configuration": "ELECTRICBIKESTATION",
                "lat": 41.403908,
                "lon": 2.208436,
                "altitude": 0.1,
                "address": "C/ RAMON TURR\u00d3, 292",
                "post_code": "08908",
                "capacity": 27,
                "nearby_distance": 1000.0
            },
            {
                "station_id": 163,
                "name": "AV. IC\u00c0RIA, 202",
                "physical_configuration": "ELECTRICBIKESTATION",
                "lat": 41.3942,
                "lon": 2.20077,
                "altitude": 11.0,
                "address": "AV. IC\u00c0RIA, 202",
                "post_code": "08908",
                "capacity": 27,
                "nearby_distance": 1000.0
            },
            {
                "station_id": 164,
                "name": "C/ INDEPEND\u00c8NCIA, 379",
                "physical_configuration": "ELECTRICBIKESTATION",
                "lat": 41.411901,
                "lon": 2.177895,
                "altitude": 33.0,
                "address": "C/ INDEPEND\u00c8NCIA, 379",
                "post_code": "08908",
                "capacity": 26,
                "nearby_distance": 1000.0
            },
            {
                "station_id": 165,
                "name": "C/ DEL DOCTOR TRUETA, 222",
                "physical_configuration": "ELECTRICBIKESTATION",
                "lat": 41.399196,
                "lon": 2.204253,
                "altitude": 0.1,
                "address": "C/ DEL DOCTOR TRUETA, 222",
                "post_code": "08908",
                "capacity": 27,
                "nearby_distance": 1000.0
            },
            {
                "station_id": 166,
                "name": "C/ BILBAO, 2",
                "physical_configuration": "ELECTRICBIKESTATION",
                "lat": 41.400533,
                "lon": 2.206539,
                "altitude": 0.0,
                "address": "C/ BILBAO, 2",
                "post_code": "08005",
                "capacity": 27,
                "nearby_distance": 1000.0
            },
            {
                "station_id": 167,
                "name": "C/ BAC DE RODA, 11",
                "physical_configuration": "ELECTRICBIKESTATION",
                "lat": 41.402561,
                "lon": 2.210538,
                "altitude": 0.1,
                "address": "C/ BAC DE RODA, 11",
                "post_code": "08908",
                "capacity": 21,
                "nearby_distance": 1000.0
            },
            {
                "station_id": 168,
                "name": "SELVA DE MAR / PG. DEL TAULAT",
                "physical_configuration": "ELECTRICBIKESTATION",
                "lat": 41.405358,
                "lon": 2.213677,
                "altitude": 0.1,
                "address": "SELVA DE MAR / PG. DEL TAULAT",
                "post_code": "08908",
                "capacity": 27,
                "nearby_distance": 1000.0
            },
            {
                "station_id": 170,
                "name": "AV.LITORAL, 40 (ANNEXA A LA 169)",
                "physical_configuration": "ELECTRICBIKESTATION",
                "lat": 41.389732,
                "lon": 2.199934,
                "altitude": 1.0,
                "address": "AV.LITORAL, 40 (ANNEXA A LA 169)",
                "post_code": "08908",
                "capacity": 54,
                "nearby_distance": 1000.0
            },
            {
                "station_id": 171,
                "name": "PG. MAR\u00cdTIM DE LA NOVA IC\u00c0RIA, 83",
                "physical_configuration": "ELECTRICBIKESTATION",
                "lat": 41.391986,
                "lon": 2.203699,
                "altitude": 0.1,
                "address": "PG. MAR\u00cdTIM DE LA NOVA IC\u00c0RIA, 83",
                "post_code": "08908",
                "capacity": 54,
                "nearby_distance": 1000.0
            },
            {
                "station_id": 173,
                "name": "AV.LITORAL, 84",
                "physical_configuration": "ELECTRICBIKESTATION",
                "lat": 41.398027,
                "lon": 2.208982,
                "altitude": 0.1,
                "address": "AV.LITORAL, 84",
                "post_code": "08908",
                "capacity": 27,
                "nearby_distance": 1000.0
            },
            {
                "station_id": 174,
                "name": "PG. DE GARCIA F\u00c0RIA, 21/ESPRONCEDA",
                "physical_configuration": "ELECTRICBIKESTATION",
                "lat": 41.40061,
                "lon": 2.210461,
                "altitude": 0.1,
                "address": "PG. DE GARCIA F\u00c0RIA, 21/ESPRONCEDA",
                "post_code": "08908",
                "capacity": 27,
                "nearby_distance": 1000.0
            },
            {
                "station_id": 175,
                "name": "C/ LLULL, 309",
                "physical_configuration": "ELECTRICBIKESTATION",
                "lat": 41.40666,
                "lon": 2.20956,
                "altitude": 10.0,
                "address": "C/ LLULL, 309",
                "post_code": "08908",
                "capacity": 27,
                "nearby_distance": 1000.0
            },
            {
                "station_id": 176,
                "name": "PG. DE GARCIA F\u00c0RIA, 37/JOSEP FERRATER",
                "physical_configuration": "ELECTRICBIKESTATION",
                "lat": 41.402541,
                "lon": 2.212641,
                "altitude": 0.1,
                "address": "PG. DE GARCIA F\u00c0RIA, 37/JOSEP FERRATER",
                "post_code": "08908",
                "capacity": 27,
                "nearby_distance": 1000.0
            },
            {
                "station_id": 177,
                "name": "C/ ROSSELL\u00d3, 557",
                "physical_configuration": "ELECTRICBIKESTATION",
                "lat": 41.411089,
                "lon": 2.181119,
                "altitude": 0.1,
                "address": "C/ ROSSELL\u00d3, 557",
                "post_code": "08908",
                "capacity": 27,
                "nearby_distance": 1000.0
            },
            {
                "station_id": 178,
                "name": "PG. DE GARCIA F\u00c0RIA, 85",
                "physical_configuration": "ELECTRICBIKESTATION",
                "lat": 41.405389,
                "lon": 2.216212,
                "altitude": 0.1,
                "address": "PG. DE GARCIA F\u00c0RIA, 85",
                "post_code": "08908",
                "capacity": 27,
                "nearby_distance": 1000.0
            },
            {
                "station_id": 179,
                "name": "PG. ZONA FRANCA, 244",
                "physical_configuration": "ELECTRICBIKESTATION",
                "lat": 41.363511,
                "lon": 2.13677,
                "altitude": 48.0,
                "address": "PG. ZONA FRANCA, 244",
                "post_code": "08908",
                "capacity": 15,
                "nearby_distance": 1000.0
            },
            {
                "station_id": 180,
                "name": "GRAN VIA DE LES CORTS CATALANES/MOSS\u00c8N",
                "physical_configuration": "ELECTRICBIKESTATION",
                "lat": 41.36778,
                "lon": 2.13926,
                "altitude": 50.0,
                "address": "GRAN VIA DE LES CORTS CATALANES/MOSS\u00c8N AMADEU OLLER",
                "post_code": "08908",
                "capacity": 51,
                "nearby_distance": 1000.0
            },
            {
                "station_id": 182,
                "name": "GRAN VIA DE LES CORTS CATALANES, 273",
                "physical_configuration": "ELECTRICBIKESTATION",
                "lat": 41.371455,
                "lon": 2.143882,
                "altitude": 61.0,
                "address": "GRAN VIA DE LES CORTS CATALANES, 273",
                "post_code": "08908",
                "capacity": 27,
                "nearby_distance": 1000.0
            },
            {
                "station_id": 183,
                "name": "C/ GAV\u00c0, 1",
                "physical_configuration": "ELECTRICBIKESTATION",
                "lat": 41.372338,
                "lon": 2.141875,
                "altitude": 61.0,
                "address": "C/ GAV\u00c0, 1",
                "post_code": "08908",
                "capacity": 28,
                "nearby_distance": 1000.0
            },
            {
                "station_id": 184,
                "name": "C/ QUETZAL, 22-24",
                "physical_configuration": "ELECTRICBIKESTATION",
                "lat": 41.367504,
                "lon": 2.134088,
                "altitude": 50.0,
                "address": "C/ QUETZAL, 22-24",
                "post_code": "08908",
                "capacity": 27,
                "nearby_distance": 1000.0
            },
            {
                "station_id": 185,
                "name": "C/GAV\u00c0, 81",
                "physical_configuration": "ELECTRICBIKESTATION",
                "lat": 41.37046,
                "lon": 2.138994,
                "altitude": 50.0,
                "address": "C/GAV\u00c0, 81",
                "post_code": "08908",
                "capacity": 17,
                "nearby_distance": 1000.0
            },
            {
                "station_id": 186,
                "name": "C/CONSELL DE CENT, 6",
                "physical_configuration": "ELECTRICBIKESTATION",
                "lat": 41.375571,
                "lon": 2.143812,
                "altitude": 0.0,
                "address": "C/CONSELL DE CENT, 6",
                "post_code": "08908",
                "capacity": 26,
                "nearby_distance": 1000.0
            },
            {
                "station_id": 187,
                "name": "C/ DE SANT PAU, 89 - 97",
                "physical_configuration": "ELECTRICBIKESTATION",
                "lat": 41.376858,
                "lon": 2.169811,
                "altitude": 24.0,
                "address": "C/ DE SANT PAU, 89 - 97",
                "post_code": "08908",
                "capacity": 19,
                "nearby_distance": 1000.0
            },
            {
                "station_id": 188,
                "name": "PG. SANT ANTONI /PL. SANTS",
                "physical_configuration": "ELECTRICBIKESTATION",
                "lat": 41.375802,
                "lon": 2.135973,
                "altitude": 45.0,
                "address": "PG. SANT ANTONI /PL. SANTS",
                "post_code": "08908",
                "capacity": 27,
                "nearby_distance": 1000.0
            },
            {
                "station_id": 189,
                "name": "C/ BRUC, 130",
                "physical_configuration": "ELECTRICBIKESTATION",
                "lat": 41.396918,
                "lon": 2.166163,
                "altitude": 50.0,
                "address": "C/ BRUC, 130",
                "post_code": "08908",
                "capacity": 28,
                "nearby_distance": 1000.0
            },
            {
                "station_id": 190,
                "name": "AV. LITORAL, 72",
                "physical_configuration": "ELECTRICBIKESTATION",
                "lat": 41.39606,
                "lon": 2.207803,
                "altitude": 0.1,
                "address": "AV. LITORAL, 72",
                "post_code": "08908",
                "capacity": 29,
                "nearby_distance": 1000.0
            },
            {
                "station_id": 191,
                "name": "C/ ROCAFORT, 167",
                "physical_configuration": "ELECTRICBIKESTATION",
                "lat": 41.382564,
                "lon": 2.149094,
                "altitude": 44.0,
                "address": "C/ ROCAFORT, 167",
                "post_code": "08908",
                "capacity": 24,
                "nearby_distance": 1000.0
            },
            {
                "station_id": 192,
                "name": "C/ JOAN G\u00dcELL, 50",
                "physical_configuration": "ELECTRICBIKESTATION",
                "lat": 41.378629,
                "lon": 2.133467,
                "altitude": 40.0,
                "address": "C/ JOAN G\u00dcELL, 50",
                "post_code": "08908",
                "capacity": 21,
                "nearby_distance": 1000.0
            },
            {
                "station_id": 193,
                "name": "C/ F\u00cdGOLS, 1",
                "physical_configuration": "ELECTRICBIKESTATION",
                "lat": 41.381311,
                "lon": 2.128912,
                "altitude": 46.0,
                "address": "C/ F\u00cdGOLS, 1",
                "post_code": "08908",
                "capacity": 27,
                "nearby_distance": 1000.0
            },
            {
                "station_id": 194,
                "name": "C/ JOAN G\u00dcELL, 98",
                "physical_configuration": "ELECTRICBIKESTATION",
                "lat": 41.381013,
                "lon": 2.132319,
                "altitude": 40.0,
                "address": "C/ JOAN G\u00dcELL, 98",
                "post_code": "08908",
                "capacity": 24,
                "nearby_distance": 1000.0
            },
            {
                "station_id": 195,
                "name": "C/ VALLESPIR, 130",
                "physical_configuration": "ELECTRICBIKESTATION",
                "lat": 41.381888,
                "lon": 2.135433,
                "altitude": 45.0,
                "address": "C/ VALLESPIR, 130",
                "post_code": "08908",
                "capacity": 27,
                "nearby_distance": 1000.0
            },
            {
                "station_id": 196,
                "name": "C/ BERL\u00cdN, 38",
                "physical_configuration": "ELECTRICBIKESTATION",
                "lat": 41.383241,
                "lon": 2.139363,
                "altitude": 57.0,
                "address": "C/ BERL\u00cdN, 38",
                "post_code": "08908",
                "capacity": 27,
                "nearby_distance": 1000.0
            },
            {
                "station_id": 197,
                "name": "C/ GELABERT, 1",
                "physical_configuration": "ELECTRICBIKESTATION",
                "lat": 41.38712,
                "lon": 2.141039,
                "altitude": 57.0,
                "address": "C/ GELABERT, 1",
                "post_code": "08908",
                "capacity": 27,
                "nearby_distance": 1000.0
            },
            {
                "station_id": 198,
                "name": "C/ VALLESPIR, 194",
                "physical_configuration": "ELECTRICBIKESTATION",
                "lat": 41.38451,
                "lon": 2.133617,
                "altitude": 58.0,
                "address": "C/ VALLESPIR, 194",
                "post_code": "08908",
                "capacity": 27,
                "nearby_distance": 1000.0
            },
            {
                "station_id": 199,
                "name": "C/ MEJ\u00cdA LEQUERICA, 2",
                "physical_configuration": "ELECTRICBIKESTATION",
                "lat": 41.38182,
                "lon": 2.126933,
                "altitude": 46.0,
                "address": "C/ MEJ\u00cdA LEQUERICA, 2",
                "post_code": "08908",
                "capacity": 27,
                "nearby_distance": 1000.0
            },
            {
                "station_id": 200,
                "name": "C/ JOAN GUELL, 174",
                "physical_configuration": "ELECTRICBIKESTATION",
                "lat": 41.383834,
                "lon": 2.131122,
                "altitude": 60.0,
                "address": "C/ JOAN GUELL, 174",
                "post_code": "08908",
                "capacity": 24,
                "nearby_distance": 1000.0
            },
            {
                "station_id": 201,
                "name": "C/ NUM\u00c0NCIA, 136",
                "physical_configuration": "ELECTRICBIKESTATION",
                "lat": 41.387787,
                "lon": 2.134341,
                "altitude": 58.0,
                "address": "C/ NUM\u00c0NCIA, 136",
                "post_code": "08908",
                "capacity": 24,
                "nearby_distance": 1000.0
            },
            {
                "station_id": 202,
                "name": "C/ DE LES CORTS, 20",
                "physical_configuration": "ELECTRICBIKESTATION",
                "lat": 41.385331,
                "lon": 2.128737,
                "altitude": 60.0,
                "address": "C/ DE LES CORTS, 20",
                "post_code": "08908",
                "capacity": 27,
                "nearby_distance": 1000.0
            },
            {
                "station_id": 203,
                "name": "AV. DIAGONAL, 668",
                "physical_configuration": "ELECTRICBIKESTATION",
                "lat": 41.388742,
                "lon": 2.128503,
                "altitude": 60.0,
                "address": "AV. DIAGONAL, 668",
                "post_code": "08908",
                "capacity": 33,
                "nearby_distance": 1000.0
            },
            {
                "station_id": 204,
                "name": "AV. DIAGONAL, 664",
                "physical_configuration": "ELECTRICBIKESTATION",
                "lat": 41.388011,
                "lon": 2.125593,
                "altitude": 60.0,
                "address": "AV. DIAGONAL, 664",
                "post_code": "08908",
                "capacity": 33,
                "nearby_distance": 1000.0
            },
            {
                "station_id": 205,
                "name": "C/ EUROPA, 25",
                "physical_configuration": "ELECTRICBIKESTATION",
                "lat": 41.387465,
                "lon": 2.130838,
                "altitude": 60.0,
                "address": "C/ EUROPA, 25",
                "post_code": "08908",
                "capacity": 33,
                "nearby_distance": 1000.0
            },
            {
                "station_id": 206,
                "name": "AV. DIAGONAL, 650",
                "physical_configuration": "ELECTRICBIKESTATION",
                "lat": 41.389845,
                "lon": 2.13284,
                "altitude": 60.0,
                "address": "AV. DIAGONAL, 650",
                "post_code": "08908",
                "capacity": 33,
                "nearby_distance": 1000.0
            },
            {
                "station_id": 207,
                "name": "AV. DIAGONAL, 634",
                "physical_configuration": "ELECTRICBIKESTATION",
                "lat": 41.390828,
                "lon": 2.136665,
                "altitude": 57.0,
                "address": "AV. DIAGONAL, 634",
                "post_code": "08908",
                "capacity": 25,
                "nearby_distance": 1000.0
            },
            {
                "station_id": 208,
                "name": "AV. DIAGONAL, 630",
                "physical_configuration": "ELECTRICBIKESTATION",
                "lat": 41.391451,
                "lon": 2.139116,
                "altitude": 57.0,
                "address": "AV. DIAGONAL, 630",
                "post_code": "08908",
                "capacity": 33,
                "nearby_distance": 1000.0
            },
            {
                "station_id": 209,
                "name": "C/ DIPUTACI\u00d3, 200",
                "physical_configuration": "ELECTRICBIKESTATION",
                "lat": 41.385755,
                "lon": 2.161004,
                "altitude": 41.0,
                "address": "C/ DIPUTACI\u00d3, 200",
                "post_code": "08908",
                "capacity": 26,
                "nearby_distance": 1000.0
            },
            {
                "station_id": 210,
                "name": "C/ VILARDELL, 18",
                "physical_configuration": "ELECTRICBIKESTATION",
                "lat": 41.37453,
                "lon": 2.142356,
                "altitude": 50.0,
                "address": "C/ VILARDELL, 18",
                "post_code": "08908",
                "capacity": 27,
                "nearby_distance": 1000.0
            },
            {
                "station_id": 211,
                "name": "C/ SANCHO DE \u00c1VILA, 60-64",
                "physical_configuration": "ELECTRICBIKESTATION",
                "lat": 41.398772,
                "lon": 2.190167,
                "altitude": 18.0,
                "address": "C/ SANCHO DE \u00c1VILA, 60-64",
                "post_code": "08908",
                "capacity": 28,
                "nearby_distance": 1000.0
            },
            {
                "station_id": 212,
                "name": "AV. SARRI\u00c0, 163",
                "physical_configuration": "ELECTRICBIKESTATION",
                "lat": 41.39239,
                "lon": 2.130945,
                "altitude": 82.0,
                "address": "AV. SARRI\u00c0, 163",
                "post_code": "08908",
                "capacity": 24,
                "nearby_distance": 1000.0
            },
            {
                "station_id": 213,
                "name": "C/ SANTA FE DE NOU M\u00c8XIC, 2",
                "physical_configuration": "ELECTRICBIKESTATION",
                "lat": 41.393783,
                "lon": 2.135078,
                "altitude": 79.0,
                "address": "C/ SANTA FE DE NOU M\u00c8XIC, 2",
                "post_code": "08908",
                "capacity": 33,
                "nearby_distance": 1000.0
            },
            {
                "station_id": 214,
                "name": "C/ JOS\u00c9 DE  AGULL\u00d3, 9",
                "physical_configuration": "ELECTRICBIKESTATION",
                "lat": 41.395251,
                "lon": 2.133541,
                "altitude": 85.0,
                "address": "C/ JOS\u00c9 DE  AGULL\u00d3, 9",
                "post_code": "08908",
                "capacity": 25,
                "nearby_distance": 1000.0
            },
            {
                "station_id": 215,
                "name": "C/ GANDUXER, 29",
                "physical_configuration": "ELECTRICBIKESTATION",
                "lat": 41.39412,
                "lon": 2.138146,
                "altitude": 79.0,
                "address": "C/ GANDUXER, 29",
                "post_code": "08908",
                "capacity": 21,
                "nearby_distance": 1000.0
            },
            {
                "station_id": 216,
                "name": "C/ MADRAZO, 131",
                "physical_configuration": "ELECTRICBIKESTATION",
                "lat": 41.396809,
                "lon": 2.144534,
                "altitude": 69.0,
                "address": "C/ MADRAZO, 131",
                "post_code": "08908",
                "capacity": 27,
                "nearby_distance": 1000.0
            },
            {
                "station_id": 217,
                "name": "C/ RECTOR UBACH, 24",
                "physical_configuration": "ELECTRICBIKESTATION",
                "lat": 41.398463,
                "lon": 2.143924,
                "altitude": 69.0,
                "address": "C/ RECTOR UBACH, 24",
                "post_code": "08908",
                "capacity": 27,
                "nearby_distance": 1000.0
            },
            {
                "station_id": 218,
                "name": "C/ CONSELL DE CENT, 566",
                "physical_configuration": "ELECTRICBIKESTATION",
                "lat": 41.404114,
                "lon": 2.183203,
                "altitude": 28.0,
                "address": "C/ CONSELL DE CENT, 566",
                "post_code": "08908",
                "capacity": 27,
                "nearby_distance": 1000.0
            },
            {
                "station_id": 219,
                "name": "C/ LAFORJA, 74-76",
                "physical_configuration": "ELECTRICBIKESTATION",
                "lat": 41.397698,
                "lon": 2.147358,
                "altitude": 69.0,
                "address": "C/ LAFORJA, 74-76",
                "post_code": "08908",
                "capacity": 26,
                "nearby_distance": 1000.0
            },
            {
                "station_id": 220,
                "name": "C/ TUSET, 19",
                "physical_configuration": "ELECTRICBIKESTATION",
                "lat": 41.396229,
                "lon": 2.151482,
                "altitude": 59.0,
                "address": "C/ TUSET, 19",
                "post_code": "08908",
                "capacity": 27,
                "nearby_distance": 1000.0
            },
            {
                "station_id": 221,
                "name": "GRAN DE GR\u00c0CIA, 155 (METRO FONTANA)",
                "physical_configuration": "ELECTRICBIKESTATION",
                "lat": 41.402535,
                "lon": 2.152519,
                "altitude": 71.0,
                "address": "GRAN DE GR\u00c0CIA, 155 (METRO FONTANA)",
                "post_code": "08908",
                "capacity": 24,
                "nearby_distance": 1000.0
            },
            {
                "station_id": 222,
                "name": "C/ DEL CAN\u00d3, 1",
                "physical_configuration": "ELECTRICBIKESTATION",
                "lat": 41.40124,
                "lon": 2.157483,
                "altitude": 71.0,
                "address": "C/ DEL CAN\u00d3, 1",
                "post_code": "08908",
                "capacity": 27,
                "nearby_distance": 1000.0
            },
            {
                "station_id": 223,
                "name": "C/ DE BONAVISTA, 14",
                "physical_configuration": "ELECTRICBIKESTATION",
                "lat": 41.398311,
                "lon": 2.159865,
                "altitude": 50.0,
                "address": "C/ DE BONAVISTA, 14",
                "post_code": "08908",
                "capacity": 36,
                "nearby_distance": 1000.0
            },
            {
                "station_id": 224,
                "name": "C / GIRONA, 176",
                "physical_configuration": "ELECTRICBIKESTATION",
                "lat": 41.399945,
                "lon": 2.164389,
                "altitude": 55.0,
                "address": "C / GIRONA, 176",
                "post_code": "08908",
                "capacity": 26,
                "nearby_distance": 1000.0
            },
            {
                "station_id": 225,
                "name": "C/ MALLORCA, 84",
                "physical_configuration": "ELECTRICBIKESTATION",
                "lat": 41.384956,
                "lon": 2.150814,
                "altitude": 44.0,
                "address": "C/ MALLORCA, 84",
                "post_code": "08908",
                "capacity": 24,
                "nearby_distance": 1000.0
            },
            {
                "station_id": 226,
                "name": "C/ MONTMANY, 1",
                "physical_configuration": "ELECTRICBIKESTATION",
                "lat": 41.403465,
                "lon": 2.161096,
                "altitude": 59.0,
                "address": "C/ MONTMANY, 1",
                "post_code": "08908",
                "capacity": 27,
                "nearby_distance": 1000.0
            },
            {
                "station_id": 227,
                "name": "C/ DEL TORRENT DE LES FLORS, 102",
                "physical_configuration": "ELECTRICBIKESTATION",
                "lat": 41.407837,
                "lon": 2.158678,
                "altitude": 59.0,
                "address": "C/ DEL TORRENT DE LES FLORS, 102",
                "post_code": "08908",
                "capacity": 18,
                "nearby_distance": 1000.0
            },
            {
                "station_id": 228,
                "name": "PL. DEL NORD, 5",
                "physical_configuration": "ELECTRICBIKESTATION",
                "lat": 41.40694,
                "lon": 2.155794,
                "altitude": 71.0,
                "address": "PL. DEL NORD, 5",
                "post_code": "08908",
                "capacity": 21,
                "nearby_distance": 1000.0
            },
            {
                "station_id": 229,
                "name": "C/ DE LA SANTACREU, 2 (PL.DE LA VIRREIN",
                "physical_configuration": "ELECTRICBIKESTATION",
                "lat": 41.405107,
                "lon": 2.156874,
                "altitude": 71.0,
                "address": "C/ DE LA SANTACREU, 2 (PL.DE LA VIRREINA)",
                "post_code": "08908",
                "capacity": 28,
                "nearby_distance": 1000.0
            },
            {
                "station_id": 230,
                "name": "C/ DE NIL FABRA, 16-20",
                "physical_configuration": "ELECTRICBIKESTATION",
                "lat": 41.405986,
                "lon": 2.151633,
                "altitude": 71.0,
                "address": "C/ DE NIL FABRA, 16-20",
                "post_code": "08908",
                "capacity": 26,
                "nearby_distance": 1000.0
            },
            {
                "station_id": 231,
                "name": "C/ PI I MARGALL, 38",
                "physical_configuration": "ELECTRICBIKESTATION",
                "lat": 41.407202,
                "lon": 2.163476,
                "altitude": 82.0,
                "address": "C/ PI I MARGALL, 38",
                "post_code": "08908",
                "capacity": 24,
                "nearby_distance": 1000.0
            },
            {
                "station_id": 232,
                "name": "C/ VIL\u00c0 I VIL\u00c0, 45",
                "physical_configuration": "ELECTRICBIKESTATION",
                "lat": 41.373509,
                "lon": 2.171002,
                "altitude": 1.0,
                "address": "C/ VIL\u00c0 I VIL\u00c0, 45",
                "post_code": "08908",
                "capacity": 27,
                "nearby_distance": 1000.0
            },